{
  "data": {
    "sellers": [
      {
        "id": "seller-001",
        "name": "Emma's Handmade Ceramics",
        "category": "Ceramics",
        "lat": 51.5074,
        "lng": -0.1278,
        "description": "Handcrafted ceramics inspired by the British coastline.",
        "website": "https://example.com/emma",
        "rating": 4.9
      },
      {
        "id": "seller-002",
        "name": "The Yorkshire Printmaker",
        "category": "Prints",
        "lat": 53.4808,
        "lng": -2.2426,
        "description": "Limited edition landscape prints.",
        "website": "https://example.com/yorkshire",
        "rating": 4.8
      },
      {
        "id": "seller-003",
        "name": "Dorset Woodcraft",
        "category": "Woodwork",
        "lat": 50.7192,
        "lng": -1.8808,
        "description": "Traditional handcrafted oak furniture.",
        "website": "https://example.com/dorset",
        "rating": 4.7
      },
      {
        "id": "seller-004",
        "name": "Silver Leaf Jewellery",
        "category": "Jewellery",
        "lat": 52.4862,
        "lng": -1.8904,
        "description": "Contemporary handmade silver jewellery.",
        "website": "https://example.com/silverleaf",
        "rating": 4.9
      },
      {
        "id": "seller-005",
        "name": "Vintage Vinyl UK",
        "category": "Collectables",
        "lat": 53.4084,
        "lng": -2.9916,
        "description": "Rare and collectible vinyl records.",
        "website": "https://example.com/vinyl",
        "rating": 4.6
      }
    ],
    "defaultCenter": {
      "lat": 52.3555,
      "lng": -1.1743
    },
    "zoom": 6,
    "country": "gb"
  },
  "integration": {
    "requires": [
      "googleMaps"
    ]
  }
}